[{"zip": "80003", "latitude": 39.8182494, "longitude": -105.0674317, "name": "Westminster, CO 80003, USA"}, {"zip": "80004", "latitude": 39.8163023, "longitude": -105.1200482, "name": "Arvada, CO 80004, USA"}, {"zip": "80010", "latitude": 39.7393313, "longitude": -104.8629746, "name": "Aurora, CO 80010, USA"}, {"zip": "80011", "latitude": 39.7542465, "longitude": -104.7871004, "name": "Aurora, CO 80011, USA"}, {"zip": "80012", "latitude": 39.7020217, "longitude": -104.8396248, "name": "Denver, CO 80012, USA"}, {"zip": "80013", "latitude": 39.6563415, "longitude": -104.7637619, "name": "Aurora, CO 80013, USA"}, {"zip": "80014", "latitude": 39.6631609, "longitude": -104.8279512, "name": "Denver, CO 80014, USA"}, {"zip": "80015", "latitude": 39.6288155, "longitude": -104.7812654, "name": "Aurora, CO 80015, USA"}, {"zip": "80016", "latitude": 39.5815071, "longitude": -104.7170954, "name": "Aurora, CO 80016, USA"}, {"zip": "80017", "latitude": 39.69370869999999, "longitude": -104.7871004, "name": "Aurora, CO 80017, USA"}, {"zip": "80020", "latitude": 39.93891989999999, "longitude": -105.0674317, "name": "Westminster, CO 80020, USA"}, {"zip": "80021", "latitude": 39.892517, "longitude": -105.1142011, "name": "Westminster, CO 80021, USA"}, {"zip": "80022", "latitude": 39.866593, "longitude": -104.7754307, "name": "Denver, CO 80022, USA"}, {"zip": "80026", "latitude": 39.9960635, "longitude": -105.0908147, "name": "Lafayette, CO 80026, USA"}, {"zip": "80027", "latitude": 39.9434473, "longitude": -105.1843801, "name": "Louisville, CO 80027, USA"}, {"zip": "80030", "latitude": 39.8300502, "longitude": -105.0352855, "name": "Westminster, CO 80030, USA"}, {"zip": "80033", "latitude": 39.7775841, "longitude": -105.1083542, "name": "Denver, CO 80033, USA"}, {"zip": "80112", "latitude": 39.5835785, "longitude": -104.8571368, "name": "Englewood, CO 80112, USA"}, {"zip": "80113", "latitude": 39.6448429, "longitude": -104.9680914, "name": "Englewood, CO 80113, USA"}, {"zip": "80122", "latitude": 39.5756558, "longitude": -104.9564084, "name": "Littleton, CO 80122, USA"}, {"zip": "80123", "latitude": 39.6166037, "longitude": -105.0674317, "name": "Littleton, CO 80123, USA"}, {"zip": "80127", "latitude": 39.5350229, "longitude": -105.1492869, "name": "Littleton, CO 80127, USA"}, {"zip": "80128", "latitude": 39.5761957, "longitude": -105.0674317, "name": "Littleton, CO 80128, USA"}, {"zip": "80202", "latitude": 39.7541032, "longitude": -105.0002242, "name": "Denver, CO 80202, USA"}, {"zip": "80203", "latitude": 39.7312095, "longitude": -104.9826965, "name": "Denver, CO 80203, USA"}, {"zip": "80205", "latitude": 39.7558119, "longitude": -104.9680914, "name": "Denver, CO 80205, USA"}, {"zip": "80206", "latitude": 39.7271021, "longitude": -104.9564084, "name": "Denver, CO 80206, USA"}, {"zip": "80210", "latitude": 39.6751269, "longitude": -104.9680914, "name": "Denver, CO 80210, USA"}, {"zip": "80211", "latitude": 39.7698122, "longitude": -105.0148322, "name": "Denver, CO 80211, USA"}, {"zip": "80215", "latitude": 39.747363, "longitude": -105.1083542, "name": "Denver, CO 80215, USA"}, {"zip": "80219", "latitude": 39.6961606, "longitude": -105.0382076, "name": "Denver, CO 80219, USA"}, {"zip": "80220", "latitude": 39.7316982, "longitude": -104.9213643, "name": "Denver, CO 80220, USA"}, {"zip": "80222", "latitude": 39.6696322, "longitude": -104.9330448, "name": "Denver, CO 80222, USA"}, {"zip": "80224", "latitude": 39.6928764, "longitude": -104.9096846, "name": "Denver, CO 80224, USA"}, {"zip": "80226", "latitude": 39.7101457, "longitude": -105.0849687, "name": "Denver, CO 80226, USA"}, {"zip": "80227", "latitude": 39.6682515, "longitude": -105.096661, "name": "Denver, CO 80227, USA"}, {"zip": "80228", "latitude": 39.6849237, "longitude": -105.1609838, "name": "Denver, CO 80228, USA"}, {"zip": "80229", "latitude": 39.8580556, "longitude": -104.9564084, "name": "Denver, CO 80229, USA"}, {"zip": "80232", "latitude": 39.6884271, "longitude": -105.096661, "name": "Denver, CO 80232, USA"}, {"zip": "80233", "latitude": 39.8998278, "longitude": -104.9447261, "name": "Denver, CO 80233, USA"}, {"zip": "80234", "latitude": 39.9122468, "longitude": -105.0031457, "name": "Denver, CO 80234, USA"}, {"zip": "80238", "latitude": 39.7781333, "longitude": -104.8746508, "name": "Denver, CO 80238, USA"}, {"zip": "80246", "latitude": 39.6999073, "longitude": -104.9330448, "name": "Denver, CO 80246, USA"}, {"zip": "80247", "latitude": 39.6974551, "longitude": -104.8746508, "name": "Denver, CO 80247, USA"}, {"zip": "80249", "latitude": 39.8786639, "longitude": -104.6821048, "name": "Denver, CO 80249, USA"}, {"zip": "80260", "latitude": 39.8619647, "longitude": -105.0031457, "name": "Denver, CO 80260, USA"}, {"zip": "80303", "latitude": 40.0005378, "longitude": -105.2077798, "name": "Boulder, CO 80303, USA"}, {"zip": "80401", "latitude": 39.7158773, "longitude": -105.2311827, "name": "Evergreen, CO 80401, USA"}, {"zip": "80403", "latitude": 39.8325847, "longitude": -105.336536, "name": "Arvada, CO 80403, USA"}, {"zip": "80439", "latitude": 39.6184866, "longitude": -105.4302383, "name": "Evergreen, CO 80439, USA"}, {"zip": "80501", "latitude": 40.1733277, "longitude": -105.1142011, "name": "Longmont, CO 80501, USA"}, {"zip": "80504", "latitude": 40.1572572, "longitude": -105.0089888, "name": "Longmont, CO 80504, USA"}, {"zip": "80516", "latitude": 40.0369992, "longitude": -105.0089888, "name": "Erie, CO 80516, USA"}, {"zip": "80537", "latitude": 40.372134, "longitude": -105.1960795, "name": "Loveland, CO 80537, USA"}, {"zip": "80538", "latitude": 40.4853645, "longitude": -105.2428853, "name": "Loveland, CO 80538, USA"}, {"zip": "80550", "latitude": 40.4891031, "longitude": -104.9155243, "name": "Windsor, CO 80550, USA"}, {"zip": "80601", "latitude": 39.9726732, "longitude": -104.8104424, "name": "Brighton, CO 80601, USA"}, {"zip": "80602", "latitude": 39.9689905, "longitude": -104.9155243, "name": "Thornton, CO 80602, USA"}, {"zip": "80620", "latitude": 40.3711825, "longitude": -104.7112631, "name": "Evans, CO 80620, USA"}]